airport_code,city_name,state_abr,longitude,latitude
MSY,"New Orleans, LA",LA,-90.25916667,29.99333333
PHX,"Phoenix, AZ",AZ,-112.01166667,33.43416667
SAT,"San Antonio, TX",TX,-98.46916667,29.53388889
MWH,"Moses Lake, WA",WA,-119.32111111,47.21055556
SEA,"Seattle, WA",WA,-122.31166667,47.45
OAK,"Oakland, CA",CA,-122.22111111,37.72111111
EWR,"Newark, NJ",NJ,-74.16861111,40.6925
OGG,"Kahului, HI",HI,-156.43055556,20.89861111
KOA,"Kona, HI",HI,-156.04555556,19.73888889
OKC,"Oklahoma City, OK",OK,-97.60083333,35.39305556
LAS,"Las Vegas, NV",NV,-115.15222222,36.08
SLC,"Salt Lake City, UT",UT,-111.97777778,40.78833333
OMA,"Omaha, NE",NE,-95.89416667,41.30305556
BOS,"Boston, MA",MA,-71.00638889,42.36305556
BWI,"Baltimore, MD",MD,-76.66888889,39.17583333
CID,"Cedar Rapids/Iowa City, IA",IA,-91.71083333,41.88472222
CLE,"Cleveland, OH",OH,-81.85472222,41.40944444
LAX,"Los Angeles, CA",CA,-118.40805556,33.9425
MSP,"Minneapolis, MN",MN,-93.22166667,44.88194444
PHL,"Philadelphia, PA",PA,-75.24055556,39.87194444
SFO,"San Francisco, CA",CA,-122.37555556,37.61888889
SMF,"Sacramento, CA",CA,-121.59083333,38.69555556
TUS,"Tucson, AZ",AZ,-110.94111111,32.11611111
ONT,"Ontario, CA",CA,-117.60111111,34.05611111
DAY,"Dayton, OH",OH,-84.21944444,39.90222222
IAH,"Houston, TX",TX,-95.34138889,29.98444444
LGA,"New York, NY",NY,-73.8725,40.77722222
MCI,"Kansas City, MO",MO,-94.71388889,39.2975
SAN,"San Diego, CA",CA,-117.18972222,32.73361111
ORD,"Chicago, IL",IL,-87.90666667,41.97444444
BIL,"Billings, MT",MT,-108.54361111,45.80777778
BNA,"Nashville, TN",TN,-86.67805556,36.12444444
DTW,"Detroit, MI",MI,-83.35333333,42.2125
EUG,"Eugene, OR",OR,-123.21194444,44.12444444
ICT,"Wichita, KS",KS,-97.43305556,37.65
MIA,"Miami, FL",FL,-80.29,25.79527778
PBI,"West Palm Beach/Palm Beach, FL",FL,-80.09555556,26.68305556
YUM,"Yuma, AZ",AZ,-114.60611111,32.65666667
ORF,"Norfolk, VA",VA,-76.20111111,36.89472222
CAE,"Columbia, SC",SC,-81.11944444,33.93888889
PIT,"Pittsburgh, PA",PA,-80.23277778,40.49138889
TLH,"Tallahassee, FL",FL,-84.35083333,30.39666667
ATW,"Appleton, WI",WI,-88.51916667,44.25805556
CWA,"Mosinee, WI",WI,-89.66666667,44.7775
CHS,"Charleston, SC",SC,-80.04055556,32.89861111
CLT,"Charlotte, NC",NC,-80.94916667,35.21361111
CRP,"Corpus Christi, TX",TX,-97.5025,27.77222222
FLL,"Fort Lauderdale, FL",FL,-80.14972222,26.07166667
PDT,"Pendleton, OR",OR,-118.84305556,45.69472222
YKM,"Yakima, WA",WA,-120.54416667,46.56805556
PDX,"Portland, OR",OR,-122.59694444,45.58861111
BDL,"Hartford, CT",CT,-72.68333333,41.93916667
COS,"Colorado Springs, CO",CO,-104.70083333,38.80583333
MKE,"Milwaukee, WI",WI,-87.89694444,42.94694444
BTV,"Burlington, VT",VT,-73.15333333,44.47194444
CEF,"Chicopee Falls, MA",MA,-72.53472222,42.19388889
GSP,"Greer, SC",SC,-82.21888889,34.89555556
HSV,"Huntsville, AL",AL,-86.775,34.63722222
JFK,"New York, NY",NY,-73.77861111,40.64
MCO,"Orlando, FL",FL,-81.30888889,28.42944444
FSD,"Sioux Falls, SD",SD,-96.74194444,43.58194444
FWA,"Fort Wayne, IN",IN,-85.19527778,40.97833333
CRW,"Charleston/Dunbar, WV",WV,-81.59277778,38.37611111
IAD,"Washington, DC",VA,-77.46,38.9475
LEX,"Lexington, KY",KY,-84.60861111,38.03666667
SBN,"South Bend, IN",IN,-86.31722222,41.70833333
GCC,"Gillette, WY",WY,-105.53944444,44.34888889
SHR,"Sheridan, WY",WY,-106.98027778,44.76916667
GEG,"Spokane, WA",WA,-117.53527778,47.61916667
GJT,"Grand Junction, CO",CO,-108.52666667,39.1225
EGE,"Eagle, CO",CO,-106.91583333,39.64277778
TUL,"Tulsa, OK",OK,-95.88805556,36.19833333
GNV,"Gainesville, FL",FL,-82.27166667,29.69
GRB,"Green Bay, WI",WI,-88.12972222,44.48472222
CAK,"Akron, OH",OH,-81.44361111,40.915
GSO,"Greensboro/High Point, NC",NC,-79.94111111,36.10138889
IND,"Indianapolis, IN",IN,-86.29472222,39.71722222
SAV,"Savannah, GA",GA,-81.20222222,32.1275
ABE,"Allentown/Bethlehem/Easton, PA",PA,-75.44027778,40.6525
BHM,"Birmingham, AL",AL,-86.75222222,33.56388889
CMH,"Columbus, OH",OH,-82.89222222,39.99694444
DAB,"Daytona Beach, FL",FL,-81.05805556,29.18
RDU,"Raleigh/Durham, NC",NC,-78.7875,35.87777778
GTF,"Great Falls, MT",MT,-111.37027778,47.48222222
AUS,"Austin, TX",TX,-97.67,30.19444444
BZN,"Bozeman, MT",MT,-111.15027778,45.77722222
GUM,"Guam, TT",TT,144.79722222,13.48388889
HLN,"Helena, MT",MT,-111.98333333,46.60666667
HNL,"Honolulu, HI",HI,-157.92027778,21.31777778
ITO,"Hilo, HI",HI,-155.04833333,19.72027778
HOU,"Houston, TX",TX,-95.27888889,29.64555556
HRL,"Harlingen/San Benito, TX",TX,-97.65527778,26.22722222
SRQ,"Sarasota/Bradenton, FL",FL,-82.55444444,27.39555556
HTS,"Ashland, WV",WV,-82.56027778,38.36861111
ABQ,"Albuquerque, NM",NM,-106.60833333,35.03888889
ATL,"Atlanta, GA",GA,-84.42777778,33.63666667
BTR,"Baton Rouge, LA",LA,-91.15,30.53305556
DCA,"Washington, DC",VA,-77.03777778,38.85138889
JAX,"Jacksonville, FL",FL,-81.68777778,30.49416667
TYS,"Knoxville, TN",TN,-83.99527778,35.80944444
PVD,"Providence, RI",RI,-71.42777778,41.72222222
SCK,"Stockton, CA",CA,-121.23861111,37.89444444
SGF,"Springfield, MO",MO,-93.38861111,37.24555556
IDA,"Idaho Falls, ID",ID,-112.07083333,43.51361111
MLB,"Melbourne, FL",FL,-80.64527778,28.10277778
RNO,"Reno, NV",NV,-119.76805556,39.49916667
TPA,"Tampa, FL",FL,-82.53333333,27.97555556
JNU,"Juneau, AK",AK,-134.57833333,58.35472222
ANC,"Anchorage, AK",AK,-149.99805556,61.17416667
RAP,"Rapid City, SD",SD,-103.05722222,44.04527778
SJC,"San Jose, CA",CA,-121.92861111,37.36305556
SNA,"Santa Ana, CA",CA,-117.86833333,33.67555556
BGR,"Bangor, ME",ME,-68.82805556,44.8075
LBB,"Lubbock, TX",TX,-101.82055556,33.66361111
AMA,"Amarillo, TX",TX,-101.70583333,35.21944444
ROC,"Rochester, NY",NY,-77.67194444,43.11916667
LFT,"Lafayette, LA",LA,-91.98777778,30.205
ISP,"Islip, NY",NY,-73.10055556,40.79611111
RIC,"Richmond, VA",VA,-77.31972222,37.50527778
LGB,"Long Beach, CA",CA,-118.15194444,33.81805556
BIS,"Bismarck/Mandan, ND",ND,-100.74583333,46.77277778
MOT,"Minot, ND",ND,-101.27805556,48.25777778
LIT,"Little Rock, AR",AR,-92.22472222,34.72944444
LNK,"Lincoln, NE",NE,-96.75916667,40.85083333
SYR,"Syracuse, NY",NY,-76.10638889,43.11111111
SIT,"Sitka, AK",AK,-135.36111111,57.04694444
WRG,"Wrangell, AK",AK,-132.36972222,56.48444444
SJU,"San Juan, PR",PR,-66.00222222,18.43944444
DRO,"Durango, CO",CO,-107.75388889,37.15166667
MSN,"Madison, WI",WI,-89.3375,43.14
DSM,"Des Moines, IA",IA,-93.66305556,41.53388889
BUR,"Burbank, CA",CA,-118.35861111,34.20055556
PWM,"Portland, ME",ME,-70.30861111,43.64555556
MDW,"Chicago, IL",IL,-87.7525,41.78583333
DEN,"Denver, CO",CO,-104.67305556,39.86166667
DFW,"Dallas/Fort Worth, TX",TX,-97.03777778,32.89722222
RFD,"Rockford, IL",IL,-89.09722222,42.19527778
RSW,"Fort Myers, FL",FL,-81.75527778,26.53611111
ROA,"Roanoke, VA",VA,-79.97555556,37.32555556
TRI,"Bristol/Johnson City/Kingsport, TN",TN,-82.4075,36.47527778
BUF,"Buffalo, NY",NY,-78.73055556,42.94055556
SDF,"Louisville, KY",KY,-85.73638889,38.17416667
RST,"Rochester, MN",MN,-92.5,43.90833333
LSE,"La Crosse, WI",WI,-91.25666667,43.87916667
CVG,"Cincinnati, OH",KY,-84.66777778,39.04888889
CPR,"Casper, WY",WY,-106.46361111,42.90583333
PUB,"Pueblo, CO",CO,-104.49805556,38.29
MAF,"Midland/Odessa, TX",TX,-102.20194444,31.9425
FAT,"Fresno, CA",CA,-119.71888889,36.77666667
YNG,"Youngstown/Warren, OH",OH,-80.68027778,41.26166667
MOB,"Mobile, AL",AL,-88.24277778,30.69138889
HDN,"Hayden, CO",CO,-107.21777778,40.48111111
STL,"St. Louis, MO",MO,-90.37,38.74861111
MHT,"Manchester, NH",NH,-71.43583333,42.93277778
PNS,"Pensacola, FL",FL,-87.18666667,30.47333333
JAN,"Jackson/Vicksburg, MS",MS,-90.07583333,32.31111111
AGS,"Augusta, GA",GA,-81.96444444,33.37
PIA,"Peoria, IL",IL,-89.69333333,40.66416667
MEM,"Memphis, TN",TN,-89.97666667,35.0425
MFE,"Mission/McAllen/Edinburg, TX",TX,-98.23861111,26.17583333
MLI,"Moline, IL",IL,-90.5075,41.44833333
MSO,"Missoula, MT",MT,-114.09055556,46.91638889
ELP,"El Paso, TX",TX,-106.37638889,31.80722222
CYS,"Cheyenne, WY",WY,-104.81055556,41.15555556
CSG,"Columbus, GA",GA,-84.93888889,32.51638889
TIQ,"Tinian, TT",TT,145.61944444,14.99916667
JAC,"Jackson, WY",WY,-110.73777778,43.60722222
LAN,"Lansing, MI",MI,-84.58611111,42.77861111
AZO,"Kalamazoo, MI",MI,-85.55166667,42.23444444
STT,"Charlotte Amalie, VI",VI,-64.97333333,18.33722222
STX,"Christiansted, VI",VI,-64.80194444,17.70138889
SUX,"Sioux City, IA",IA,-96.38444444,42.4025
TOL,"Toledo, OH",OH,-83.80777778,41.58694444
MDT,"Harrisburg, PA",PA,-76.7625,40.19305556
PSC,"Pasco/Kennewick/Richland, WA",WA,-119.11916667,46.26472222
ACY,"Atlantic City, NJ",NJ,-74.57722222,39.4575
ALB,"Albany, NY",NY,-73.80194444,42.74916667
GRR,"Grand Rapids, MI",MI,-85.52277778,42.88083333
AVP,"Scranton/Wilkes-Barre, PA",PA,-75.72333333,41.33833333
BOI,"Boise, ID",ID,-116.22277778,43.56444444
MFR,"Medford, OR",OR,-122.87361111,42.37416667
AKN,"King Salmon, AK",AK,-156.64861111,58.67638889
DLG,"Dillingham, AK",AK,-158.50555556,59.04472222
DET,"Detroit, MI",MI,-83.01027778,42.40944444
SHV,"Shreveport, LA",LA,-93.82555556,32.44666667
SBA,"Santa Barbara, CA",CA,-119.84138889,34.42611111
CDB,"Cold Bay, AK",AK,-162.72611111,55.20583333
ADK,"Adak Island, AK",AK,-176.6425,51.88361111
CHO,"Charlottesville, VA",VA,-78.45222222,38.13972222
CMI,"Champaign/Urbana, IL",IL,-88.27777778,40.03888889
BQN,"Aguadilla, PR",PR,-67.12944444,18.49472222
SWF,"Newburgh/Poughkeepsie, NY",NY,-74.10472222,41.50416667
FAI,"Fairbanks, AK",AK,-147.85638889,64.815
FNT,"Flint, MI",MI,-83.74472222,42.96555556
EVV,"Evansville, IN",IN,-87.52861111,38.04083333
PMD,"Palmdale, CA",CA,-118.08444444,34.62944444
PTH,"Port Heiden, AK",AK,-158.63333333,56.95916667
SDP,"Sandpoint, AK",AK,-160.52138889,55.31361111
SPN,"Saipan, TT",TT,145.73,15.12027778
ROW,"Roswell, NM",NM,-104.52944444,33.3
SCE,"State College, PA",PA,-77.8475,40.85
ELM,"Elmira/Corning, NY",NY,-76.89166667,42.15972222
PAE,"Everett, WA",WA,-122.28166667,47.90694444
HPN,"White Plains, NY",NY,-73.7075,41.06694444
FLG,"Flagstaff, AZ",AZ,-111.66916667,35.14027778
GCN,"Grand Canyon, AZ",AZ,-112.14694444,35.95222222
BFL,"Bakersfield, CA",CA,-119.05777778,35.43388889
PPG,"Pago Pago, TT",TT,-170.71138889,-14.33166667
PSP,"Palm Springs, CA",CA,-116.50666667,33.82972222
RDM,"Bend/Redmond, OR",OR,-121.15,44.25416667
LMT,"Klamath Falls, OR",OR,-121.73305556,42.15611111
MLU,"Monroe, LA",LA,-92.03777778,32.51083333
PSE,"Ponce, PR",PR,-66.56444444,18.00888889
ABI,"Abilene, TX",TX,-99.68194444,32.41138889
BFF,"Scottsbluff, NE",NE,-103.59555556,41.87416667
BLI,"Bellingham, WA",WA,-122.5375,48.79277778
FCA,"Kalispell, MT",MT,-114.25611111,48.31055556
CHA,"Chattanooga, TN",TN,-85.20361111,35.03527778
GAL,"Galena, AK",AK,-156.935,64.73611111
UNK,"Unalakleet, AK",AK,-160.79916667,63.88861111
TWF,"Twin Falls, ID",ID,-114.48777778,42.48194444
PIH,"Pocatello, ID",ID,-112.59583333,42.90972222
MCG,"McGrath, AK",AK,-155.60694444,62.95277778
ANI,"Aniak, AK",AK,-159.54305556,61.58166667
KSM,"St. Mary's, AK",AK,-163.30194444,62.06083333
BET,"Bethel, AK",AK,-161.83722222,60.77861111
DLH,"Duluth, MN",MN,-92.19333333,46.84194444
GFK,"Grand Forks, ND",ND,-97.17388889,47.94722222
DUT,"Unalaska, AK",AK,-166.545,53.89888889
ENA,"Kenai, AK",AK,-151.24472222,60.57333333
AVL,"Asheville, NC",NC,-82.54277778,35.43444444
BTM,"Butte, MT",MT,-112.4975,45.95472222
KWT,"Kwethluk, AK",AK,-161.44361111,60.79027778
LSF,"Columbus, GA",GA,-84.98722222,32.33166667
WRI,"Fort Dix, NJ",NJ,-74.59166667,40.01555556
MBS,"Saginaw/Bay City/Midland, MI",MI,-84.07972222,43.53305556
LIH,"Lihue, HI",HI,-159.33888889,21.97611111
SPS,"Wichita Falls, TX",TX,-98.49194444,33.98888889
SUU,"Fairfield, CA",CA,-121.92416667,38.26444444
UCA,"Utica/Rome, NY",NY,-75.38027778,43.14138889
BFI,"Seattle, WA",WA,-122.30194444,47.53
EKO,"Elko, NV",NV,-115.79138889,40.825
PFN,"Panama City, FL",FL,-85.68194444,30.2125
MGM,"Montgomery, AL",AL,-86.39388889,32.30055556
BRL,"Burlington, IA",IA,-91.12555556,40.78333333
AKI,"Akiak, AK",AK,-161.23055556,60.90277778
KKI,"Akiachak, AK",AK,-161.49333333,60.91388889
TLT,"Tuluksak, AK",AK,-160.92333333,61.08777778
EEK,"Eek, AK",AK,-162.04388889,60.21361111
KKH,"Kongiganak, AK",AK,-162.88055556,59.96166667
KWN,"Quinhagak, AK",AK,-161.84527778,59.755
PKA,"Napaskiak, AK",AK,-161.77833333,60.70305556
WNA,"Napakiak, AK",AK,-161.97861111,60.69027778
WTL,"Tuntutuliak, AK",AK,-162.65472222,60.35111111
MRY,"Monterey, CA",CA,-121.84305556,36.58694444
LAF,"Lafayette, IN",IN,-86.93694444,40.41222222
KWK,"Kwigillingok, AK",AK,-163.16805556,59.87555556
HUF,"Terre Haute, IN",IN,-87.30694444,39.45055556
FAR,"Fargo, ND",ND,-96.81583333,46.92055556
SFB,"Sanford, FL",FL,-81.235,28.77722222
SPI,"Springfield, IL",IL,-89.67805556,39.84416667
SUN,"Sun Valley/Hailey/Ketchum, ID",ID,-114.29555556,43.50388889
BMI,"Bloomington/Normal, IL",IL,-88.91583333,40.47722222
TVC,"Traverse City, MI",MI,-85.58194444,44.74166667
ALO,"Waterloo, IA",IA,-92.40027778,42.55694444
AWK,"Wake Island, TT",TT,166.63666667,19.2825
ATT,"Atmautluak, AK",AK,-162.27416667,60.86777778
DAL,"Dallas, TX",TX,-96.85083333,32.84583333
MWA,"Marion/Herrin, IL",IL,-89.01111111,37.755
MQT,"Marquette, MI",MI,-87.39638889,46.34916667
HVN,"New Haven, CT",CT,-72.88666667,41.26388889
ILM,"Wilmington, NC",NC,-77.90277778,34.27111111
HIK,"Honolulu, HI",HI,-157.92027778,21.31777778
UAM,"Guam, TT",TT,144.93,13.58388889
LCK,"Columbus, OH",OH,-82.92777778,39.81388889
YIP,"Detroit, MI",MI,-83.53083333,42.24
LEB,"Lebanon-Hanover, NH",NH,-72.30416667,43.62611111
MAZ,"Mayaguez, PR",PR,-67.14833333,18.25555556
TTN,"Trenton, NJ",NJ,-74.81333333,40.27666667
EFD,"Houston, TX",TX,-95.15861111,29.60722222
OAJ,"Jacksonville/Camp Lejeune, NC",NC,-77.61222222,34.82916667
ISO,"Kinston, NC",NC,-77.60888889,35.33138889
PQI,"Presque Isle/Houlton, ME",ME,-68.04472222,46.68888889
SNP,"St. Paul, AK",AK,-170.2225,57.16638889
ROP,"Rota, TT",TT,145.24111111,14.17444444
DBQ,"Dubuque, IA",IA,-90.70944444,42.40194444
BDR,"Bridgeport, CT",CT,-73.12611111,41.16333333
PSM,"Portsmouth, NH",NH,-70.82333333,43.07805556
SLE,"Salem, OR",OR,-123.0025,44.90944444
DEC,"Decatur, IL",IL,-88.86555556,39.83444444
ACK,"Nantucket, MA",MA,-70.06,41.25305556
MCW,"Mason City, IA",IA,-93.33111111,43.15777778
FMN,"Farmington, NM",NM,-108.23,36.74138889
ALW,"Walla Walla, WA",WA,-118.28416667,46.0925
PUW,"Pullman, WA",WA,-117.11166667,46.74166667
ANB,"Anniston, AL",AL,-85.85805556,33.58805556
ASE,"Aspen, CO",CO,-106.86833333,39.22194444
BMG,"Bloomington, IN",IN,-86.61666667,39.14611111
CDV,"Cordova, AK",AK,-145.4775,60.49166667
PSG,"Petersburg, AK",AK,-132.94611111,56.80138889
GUC,"Gunnison, CO",CO,-106.93166667,38.53444444
FSM,"Fort Smith, AR",AR,-94.3675,35.33666667
FYV,"Fayetteville, AR",AR,-94.17,36.005
EAT,"Wenatchee, WA",WA,-120.20694444,47.39888889
SKA,"Spokane, WA",WA,-117.65583333,47.615
HYA,"Hyannis, MA",MA,-70.28027778,41.66944444
COU,"Columbia, MO",MO,-92.21805556,38.81722222
MOD,"Modesto, CA",CA,-120.95444444,37.62583333
LBE,"Latrobe, PA",PA,-79.41027778,40.27305556
LWS,"Lewiston, ID",ID,-117.01527778,46.37444444
GLH,"Greenville, MS",MS,-90.98555556,33.48277778
AUK,"Alakanuk, AK",AK,-164.72222222,62.68305556
MYR,"Myrtle Beach, SC",SC,-78.92833333,33.67972222
NGU,"Norfolk, VA",VA,-76.28916667,36.9375
LNY,"Lanai, HI",HI,-156.95138889,20.78555556
RIL,"Rifle, CO",CO,-107.72805556,39.52666667
BPT,"Beaumont/Port Arthur, TX",TX,-94.02055556,29.95083333
BRO,"Brownsville, TX",TX,-97.42611111,25.90611111
VBG,"Lompoc, CA",CA,-120.58444444,34.73722222
COD,"Cody, WY",WY,-109.02388889,44.52027778
BGM,"Binghamton, NY",NY,-75.97972222,42.20833333
ACT,"Waco, TX",TX,-97.23027778,31.61222222
ORH,"Worcester, MA",MA,-71.87555556,42.26722222
LCH,"Lake Charles, LA",LA,-93.22333333,30.12611111
CLL,"College Station/Bryan, TX",TX,-96.3625,30.58805556
ITH,"Ithaca/Cortland, NY",NY,-76.45861111,42.49138889
LRD,"Laredo, TX",TX,-99.46166667,27.54416667
VCT,"Victoria, TX",TX,-96.91861111,28.8525
GPT,"Gulfport/Biloxi, MS",MS,-89.07,30.40722222
FAY,"Fayetteville, NC",NC,-78.88027778,34.99111111
LAW,"Lawton/Fort Sill, OK",OK,-98.41666667,34.56777778
PRC,"Prescott, AZ",AZ,-112.41916667,34.65472222
IFP,"Bullhead City, AZ",AZ,-114.55944444,35.15472222
APF,"Naples, FL",FL,-81.77555556,26.1525
IYK,"Inyokern, CA",CA,-117.82944444,35.65861111
MVY,"Martha's Vineyard, MA",MA,-70.61388889,41.39333333
OME,"Nome, AK",AK,-165.44444444,64.5125
OTZ,"Kotzebue, AK",AK,-162.59805556,66.88472222
OXR,"Oxnard/Ventura, CA",CA,-119.20722222,34.20083333
PTK,"Pontiac, MI",MI,-83.42055556,42.66555556
VPS,"Valparaiso, FL",FL,-86.52527778,30.48333333
SIG,"San Juan, PR",PR,-66.10277778,18.45888889
RIW,"Riverton/Lander, WY",WY,-108.45972222,43.06416667
LAR,"Laramie, WY",WY,-105.675,41.31194444
MSS,"Massena, NY",NY,-74.845,44.93611111
CEZ,"Cortez, CO",CO,-108.62805556,37.30305556
ERI,"Erie, PA",PA,-80.17388889,42.08305556
CIK,"Chalkyitsik, AK",AK,-143.74,66.645
VEE,"Venetie, AK",AK,-146.36638889,67.00861111
WBQ,"Beaver, AK",AK,-147.40638889,66.36222222
FYU,"Fort Yukon, AK",AK,-145.24638889,66.5725
EAA,"Eagle, AK",AK,-141.14972222,64.77805556
GBD,"Great Bend, KS",KS,-98.85916667,38.34416667
LNS,"Lancaster, PA",PA,-76.29444444,40.12222222
RDG,"Reading, PA",PA,-75.96527778,40.37861111
MTJ,"Montrose/Delta, CO",CO,-107.89416667,38.50972222
RKS,"Rock Springs, WY",WY,-109.06527778,41.59416667
MGW,"Morgantown, WV",WV,-79.9175,39.64361111
PKB,"Parkersburg, WV",WV,-81.43916667,39.345
PIE,"St. Petersburg, FL",FL,-82.68638889,27.90861111
TEX,"Telluride, CO",CO,-107.90888889,37.95388889
TAL,"Tanana, AK",AK,-152.10805556,65.17444444
HSL,"Huslia, AK",AK,-156.35138889,65.69777778
PAH,"Paducah, KY",KY,-88.77305556,37.06027778
SUS,"St. Louis, MO",MO,-90.65194444,38.66222222
JHW,"Jamestown, NY",NY,-79.25805556,42.15333333
CKX,"Chicken, AK",AK,-141.95138889,64.06666667
GYY,"Gary, IN",IN,-87.41444444,41.61722222
DRT,"Del Rio, TX",TX,-100.92722222,29.37416667
OGD,"Ogden, UT",UT,-112.01222222,41.195
IPT,"Williamsport, PA",PA,-76.92194444,41.24166667
JLN,"Joplin, MO",MO,-94.49888889,37.15305556
LSV,"Las Vegas, NV",NV,-115.03416667,36.23611111
TYR,"Tyler, TX",TX,-95.40305556,32.35361111
BTL,"Battle Creek, MI",MI,-85.25,42.30638889
AEX,"Alexandria, LA",LA,-92.54861111,31.3275
CGI,"Cape Girardeau, MO",MO,-89.57083333,37.22527778
CLD,"Carlsbad, CA",CA,-117.28,33.12833333
MCN,"Macon, GA",GA,-83.64916667,32.69277778
SVS,"Stevens Village, AK",AK,-149.05444444,66.01694444
ADS,"Dallas, TX",TX,-96.83638889,32.96861111
KBC,"Birch Creek, AK",AK,-145.81805556,66.27444444
XXX,"Mena, AR",AR,-94.20277778,34.54527778
ABR,"Aberdeen, SD",SD,-98.4225,45.44666667
STC,"St. Cloud, MN",MN,-94.05944444,45.54611111
IRC,"Circle, AK",AK,-144.07611111,65.82805556
HIB,"Hibbing, MN",MN,-92.83888889,47.38666667
HUS,"Hughes, AK",AK,-154.26472222,66.03916667
INL,"International Falls, MN",MN,-93.40222222,48.56555556
PIR,"Pierre, SD",SD,-100.28583333,44.38277778
ATY,"Watertown, SD",SD,-97.15472222,44.91388889
CHP,"Circle Hot Springs, AK",AK,-144.61166667,65.48583333
OPF,"Miami, FL",FL,-80.27833333,25.9075
MKG,"Muskegon, MI",MI,-86.23555556,43.16777778
CMX,"Hancock/Houghton, MI",MI,-88.48916667,47.16833333
BRD,"Brainerd, MN",MN,-94.13361111,46.40416667
BRW,"Barrow, AK",AK,-156.76861111,71.28472222
SCC,"Deadhorse, AK",AK,-148.46527778,70.19472222
BJI,"Bemidji, MN",MN,-94.93472222,47.51083333
KTN,"Ketchikan, AK",AK,-131.71111111,55.35416667
HKY,"Hickory, NC",NC,-81.38944444,35.74111111
PLN,"Pellston, MI",MI,-84.79666667,45.57083333
RHI,"Rhinelander, WI",WI,-89.46666667,45.63083333
NZY,"San Diego, CA",CA,-117.21305556,32.69833333
FOD,"Fort Dodge, IA",IA,-94.19194444,42.55111111
ILN,"Wilmington, OH",OH,-83.79222222,39.42805556
IAG,"Niagara Falls, NY",NY,-78.94583333,43.1075
DHN,"Dothan, AL",AL,-85.44944444,31.32111111
TVF,"Thief River Falls, MN",MN,-96.185,48.06555556
NHK,"Patuxent River, MD",MD,-76.41,38.28638889
ESC,"Escanaba, MI",MI,-87.09361111,45.72277778
EAU,"Eau Claire, WI",WI,-91.48416667,44.86583333
TEB,"Teterboro, NJ",NJ,-74.06083333,40.85
PGV,"Greenville, NC",NC,-77.38416667,35.63555556
CHD,"Chandler, AZ",AZ,-111.81111111,33.26916667
BTT,"Bettles, AK",AK,-151.52916667,66.91388889
AKP,"Anaktuvuk Pass, AK",AK,-151.74333333,68.13361111
AOO,"Altoona, PA",PA,-78.32,40.29638889
WCR,"Chandalar, AK",AK,-148.48333333,67.50444444
VLD,"Valdosta, GA",GA,-83.27611111,30.78138889
MQY,"Smyrna, TN",TN,-86.52,36.00888889
ABY,"Albany, GA",GA,-84.19444444,31.53555556
VCV,"Victorville, CA",CA,-117.38305556,34.5975
FLO,"Florence, SC",SC,-79.72388889,34.18527778
BWG,"Bowling Green, KY",KY,-86.41972222,36.96444444
FRG,"East Farmingdale, NY",NY,-73.41333333,40.72888889
EMK,"Emmonak, AK",AK,-164.49083333,62.78611111
BIC,"Big Creek, AK",AK,-157.58333333,57.66666667
ATK,"Atqasuk, AK",AK,-157.43555556,70.46722222
KAL,"Kaltag, AK",AK,-158.74138889,64.31888889
NUL,"Nulato, AK",AK,-158.07416667,64.72944444
RBY,"Ruby, AK",AK,-155.47,64.72722222
KGK,"Koliganek, AK",AK,-157.26027778,59.72666667
ILI,"Iliamna, AK",AK,-154.91777778,59.75555556
KYU,"Koyukuk, AK",AK,-157.73055556,64.87583333
AIN,"Wainwright, AK",AK,-159.99472222,70.63805556
PIZ,"Point Lay, AK",AK,-163.00527778,69.73277778
BTI,"Barter Island, AK",AK,-143.65361111,70.11305556
CXF,"Coldfoot, AK",AK,-150.20388889,67.25222222
HYS,"Hays, KS",KS,-99.27305556,38.84222222
INT,"Winston-Salem, NC",NC,-80.22194444,36.13361111
SJT,"San Angelo, TX",TX,-100.49638889,31.35777778
IAN,"Kiana, AK",AK,-160.43666667,66.97583333
DPA,"Chicago, IL",IL,-88.24666667,41.91555556
ILG,"Wilmington, DE",DE,-75.60666667,39.67861111
GYR,"Goodyear, AZ",AZ,-112.37527778,33.42333333
HOP,"Hopkinsville, KY",KY,-87.49194444,36.67333333
AET,"Allakaket, AK",AK,-152.62222222,66.55194444
SLN,"Salina, KS",KS,-97.65222222,38.79055556
PHN,"Port Huron, MI",MI,-82.52888889,42.91083333
ALS,"Alamosa, CO",CO,-105.86777778,37.435
IPL,"El Centro, CA",CA,-115.57888889,32.83416667
ZXF,"Illinois Creek, AK",AK,-157.35,64.11666667
GRK,"Killeen, TX",TX,-97.82888889,31.06722222
NKT,"Cherry Point, NC",NC,-76.88138889,34.9025
SVN,"Savannah, GA",GA,-81.14611111,32.01
KPC,"Port Clarence, AK",AK,-166.8575,65.25333333
MFD,"Mansfield, OH",OH,-82.51666667,40.82138889
PDK,"Atlanta, GA",GA,-84.30194444,33.87555556
LBF,"North Platte, NE",NE,-100.68361111,41.12611111
MKL,"Jackson, TN",TN,-88.91555556,35.6
MNT,"Minto, AK",AK,-149.36861111,65.14805556
MTO,"Mattoon/Charleston, IL",IL,-88.28,39.47777778
NUI,"Nuiqsut, AK",AK,-151.00638889,70.20972222
OKK,"Kokomo/Logansport/Peru, IN",IN,-86.05972222,40.52777778
PAM,"Panama City, FL",FL,-85.575,30.06916667
GTR,"Columbus, MS",MS,-88.59138889,33.44833333
APA,"Denver, CO",CO,-104.84916667,39.57
MHM,"Minchumina, AK",AK,-152.30194444,63.88583333
RWI,"Rocky Mount, NC",NC,-77.89194444,35.85638889
OCF,"Ocala, FL",FL,-82.22416667,29.17194444
HOT,"Hot Springs, AR",AR,-93.09611111,34.47805556
UIN,"Quincy, IL",IL,-91.19444444,39.94305556
DUJ,"DuBois, PA",PA,-78.89861111,41.17833333
ADQ,"Kodiak, AK",AK,-152.49388889,57.74972222
PPC,"Prospect Creek, AK",AK,-150.64361111,66.81416667
KOT,"Kotlik, AK",AK,-163.53277778,63.03055556
LMA,"Lake Minchumina, AK",AK,-152.30194444,63.88583333
TCL,"Tuscaloosa, AL",AL,-87.61138889,33.22055556
PHO,"Point Hope, AK",AK,-166.79916667,68.34861111
FOE,"Topeka, KS",KS,-95.66361111,38.95083333
UMT,"Umiat, AK",AK,-152.135,69.37111111
IGM,"Kingman, AZ",AZ,-113.93805556,35.25944444
LBL,"Liberal, KS",KS,-100.96,37.04388889
LNI,"Lonely, AK",AK,-153.24222222,70.91083333
MEI,"Meridian, MS",MS,-88.75194444,32.3325
FTW,"Dallas/Fort Worth, TX",TX,-97.3625,32.81972222
TUP,"Tupelo, MS",MS,-88.77,34.26888889
XNA,"Fayetteville, AR",AR,-94.30777778,36.28166667
APN,"Alpena, MI",MI,-83.56027778,45.07805556
CIU,"Sault Ste. Marie, MI",MI,-84.4725,46.25083333
RMP,"Rampart, AK",AK,-150.14083333,65.50777778
CDC,"Cedar City, UT",UT,-113.09888889,37.70083333
JST,"Johnstown, PA",PA,-78.83472222,40.31555556
HGZ,"Hogatza, AK",AK,-155.66888889,66.19166667
ARC,"Arctic Village, AK",AK,-145.57944444,68.11472222
AFW,"Dallas/Fort Worth, TX",TX,-97.31944444,32.99027778
MIE,"Muncie/Anderson/Newcastle, IN",IN,-85.39583333,40.2425
SVA,"Savoonga, AK",AK,-170.49305556,63.68638889
CLP,"Clarks Point, AK",AK,-158.52944444,58.83361111
KEK,"Ekwok, AK",AK,-157.47111111,59.35694444
KKU,"Ekuk, AK",AK,-158.55888889,58.81111111
KMO,"Manokotak, AK",AK,-159.05666667,58.98166667
KNW,"New Stuyahok, AK",AK,-157.37305556,59.45166667
TOG,"Togiak, AK",AK,-160.39666667,59.05361111
TWA,"Twin Hills, AK",AK,-160.275,59.07444444
WFB,"Ketchikan, AK",AK,-131.66833333,55.35805556
DRG,"Deering, AK",AK,-162.76694444,66.06916667
BKC,"Buckland, AK",AK,-161.14916667,65.98166667
EDA,"Edna Bay, AK",AK,-133.65555556,55.93638889
KCC,"Coffman Cove, AK",AK,-132.91666667,56.03333333
KPB,"Point Baker, AK",AK,-133.61666667,56.35
NKI,"Naukiti, AK",AK,-133.22083333,55.875
PPV,"Port Protection, AK",AK,-133.60833333,56.32916667
EHM,"Cape Newenham, AK",AK,-162.06305556,58.64805556
ELI,"Elim, AK",AK,-162.27055556,64.615
SKK,"Shaktoolik, AK",AK,-161.22388889,64.37111111
WMO,"White Mountain, AK",AK,-163.41277778,64.68916667
MOU,"Mountain Village, AK",AK,-163.68277778,62.09472222
SXP,"Sheldon Point, AK",AK,-164.84777778,62.52055556
BIG,"Big Delta, AK",AK,-145.72027778,63.99472222
CEM,"Central, AK",AK,-144.78083333,65.57388889
WLK,"Selawik, AK",AK,-159.98583333,66.60027778
KKB,"Kitoi Bay, AK",AK,-152.35,58.19166667
KMY,"Moser Bay, AK",AK,-154.14361111,57.02638889
KZB,"Zachar Bay, AK",AK,-153.75,57.55
SYB,"Seal Bay, AK",AK,-152.23333333,58.38333333
WBB,"Stebbins, AK",AK,-162.27805556,63.51583333
GAM,"Gambell, AK",AK,-171.73277778,63.76666667
GCK,"Garden City, KS",KS,-100.72444444,37.9275
GLV,"Golovin, AK",AK,-163.00722222,64.55055556
KKA,"Koyuk, AK",AK,-161.15416667,64.93944444
GNU,"Goodnews Bay, AK",AK,-161.57361111,59.11777778
GST,"Gustavus, AK",AK,-135.7075,58.42527778
HNH,"Hoonah, AK",AK,-135.40888889,58.09611111
HCR,"Holy Cross, AK",AK,-159.775,62.18833333
HKB,"Healy, AK",AK,-148.96888889,63.8675
ANV,"Anvik, AK",AK,-160.19,62.64722222
CYF,"Chefornak, AK",AK,-164.27916667,60.13694444
CZF,"Cape Romanzof, AK",AK,-166.03861111,61.78027778
HPB,"Hooper Bay, AK",AK,-166.14666667,61.52388889
KLG,"Kalskag, AK",AK,-160.34555556,61.53583333
KPN,"Kipnuk, AK",AK,-164.02805556,59.93166667
KUK,"Kasigluk, AK",AK,-162.52444444,60.87333333
MLL,"Marshall, AK",AK,-162.02611111,61.86416667
SMK,"St. Michael, AK",AK,-162.11027778,63.49
VAK,"Chevak, AK",AK,-165.60083333,61.54083333
WAA,"Wales, AK",AK,-168.095,65.6225
TLA,"Teller, AK",AK,-166.33944444,65.24027778
KBE,"Bell Island, AK",AK,-131.57,55.92944444
CGA,"Craig, AK",AK,-133.14611111,55.47916667
HYG,"Hydaburg, AK",AK,-132.82666667,55.20666667
HYL,"Hollis, AK",AK,-132.64444444,55.48194444
KLW,"Klawock, AK",AK,-133.07611111,55.57916667
KTB,"Thorne Bay, AK",AK,-132.535,55.68833333
LIJ,"Long Island, AK",AK,-132.75,54.9
MTM,"Metlakatla, AK",AK,-131.58333333,55.13333333
WHD,"Hyder, AK",AK,-130.005,55.90361111
WWP,"Whale Pass, AK",AK,-133.11666667,56.11666667
ZXJ,"Happy Harbour, AK",AK,-132.33333333,55.48833333
WKK,"Aleknagik, AK",AK,-158.61777778,59.2825
ORV,"Noorvik, AK",AK,-161.02222222,66.8175
WTK,"Noatak, AK",AK,-162.98055556,67.56111111
KVL,"Kivalina, AK",AK,-164.56361111,67.73611111
WWT,"Newtok, AK",AK,-164.64138889,60.93916667
ABL,"Ambler, AK",AK,-157.84583333,67.0875
SHG,"Shungnak, AK",AK,-157.1625,66.88805556
HOM,"Homer, AK",AK,-151.48583333,59.645
AGN,"Angoon, AK",AK,-134.58333333,57.50388889
TKE,"Tenakee, AK",AK,-135.2,57.71666667
KNK,"Kokhanok, AK",AK,-154.8025,59.43333333
JZE,"Trading Bay, AK",AK,-151.79888889,60.81555556
YAK,"Yakutat, AK",AK,-139.66027778,59.50333333
CHU,"Chuathbaluk, AK",AK,-159.21555556,61.57916667
CKD,"Crooked Creek, AK",AK,-158.135,61.86777778
KGX,"Grayling, AK",AK,-160.06638889,62.89222222
LVD,"Lime Village, AK",AK,-155.44027778,61.35916667
RDV,"Red Devil, AK",AK,-157.35027778,61.78805556
RSH,"Russian Mission, AK",AK,-161.31944444,61.775
SHX,"Shageluk, AK",AK,-159.56916667,62.69222222
SLQ,"Sleetmute, AK",AK,-157.16583333,61.70055556
SRV,"Stony River, AK",AK,-156.58861111,61.78972222
PQS,"Pilot Station, AK",AK,-162.9425,61.96138889
SCM,"Scammon Bay, AK",AK,-165.57361111,61.84444444
EDF,"Anchorage, AK",AK,-149.80638889,61.25138889
KEB,"Nanwalek, AK",AK,-151.92527778,59.35222222
MRI,"Anchorage, AK",AK,-149.84472222,61.21361111
PGM,"Port Graham, AK",AK,-151.83027778,59.34861111
SOV,"Seldovia, AK",AK,-151.705,59.44388889
PDB,"Pedro Bay, AK",AK,-154.13,59.79694444
PTA,"Port Alsworth, AK",AK,-154.31888889,60.20444444
ADW,"Camp Springs, MD",MD,-76.86694444,38.81083333
DYS,"Abilene, TX",TX,-99.85472222,32.42055556
SKF,"San Antonio, TX",TX,-98.58111111,29.38416667
HBH,"Hobart Bay, AK",AK,-133.46666667,57.4
KCL,"Chignik Lagoon, AK",AK,-158.53444444,56.31083333
KCQ,"Chignik, AK",AK,-158.77777778,56.25555556
NME,"Nightmute, AK",AK,-164.70416667,60.46916667
NUP,"Nunapitchuk, AK",AK,-162.44055556,60.90611111
KTS,"Brevig Mission, AK",AK,-166.46777778,65.33194444
MYU,"Mekoryuk, AK",AK,-166.27027778,60.3725
NIB,"Nikolai, AK",AK,-154.35833333,63.01861111
OOK,"Toksook, AK",AK,-165.08722222,60.54138889
NNL,"Nondalton, AK",AK,-154.83916667,59.98027778
TCM,"Tacoma, WA",WA,-122.47638889,47.13777778
TKJ,"Tok, AK",AK,-142.95361111,63.32944444
BYA,"Boundary, AK",AK,-141.11333333,64.07833333
TLJ,"Tatalina, AK",AK,-155.97805556,62.895
TNK,"Tununak, AK",AK,-165.24638889,60.56944444
TXK,"Texarkana, AR",AR,-93.99111111,33.45361111
UGN,"Waukegan, IL",IL,-87.86805556,42.42222222
WYB,"Yes Bay, AK",AK,-131.80111111,55.91611111
WMK,"Meyers Chuck, AK",AK,-132.25333333,55.74
DOV,"Dover, DE",DE,-75.46583333,39.12944444
SGY,"Skagway, AK",AK,-135.31694444,59.46027778
HNS,"Haines, AK",AK,-135.52361111,59.24388889
OBU,"Kobuk, AK",AK,-156.89722222,66.91222222
SHH,"Shishmaref, AK",AK,-166.08944444,66.24944444
KWF,"Waterfall, AK",AK,-133.24055556,55.29722222
MLY,"Manley Hot Springs, AK",AK,-150.6475,64.98805556
KPR,"Port Williams, AK",AK,-152.58333333,58.43333333
TEK,"Tatitlek, AK",AK,-146.69111111,60.8725
DQU,"Ketchikan, AK",AK,-131.60138889,55.77888889
ZXH,"Chomondely Sound, AK",AK,-132.11416667,55.23916667
LUR,"Cape Lisburne, AK",AK,-166.11111111,68.875
RDB,"Red Dog, AK",AK,-162.89916667,68.03222222
PAQ,"Palmer, AK",AK,-149.08861111,61.595
PML,"Port Moller, AK",AK,-160.56083333,56.00611111
KCG,"Chignik Bay, AK",AK,-158.37333333,56.31138889
PIP,"Pilot Point, AK",AK,-157.57194444,57.58027778
VZN,"Wildman Creek, AK",AK,-159.91666667,56.25
PTU,"Platinum, AK",AK,-161.82722222,59.01777778
BKW,"Beckley, WV",WV,-81.12416667,37.78722222
MDO,"Middleton Island, AK",AK,-146.30722222,59.45
UTO,"Utopia, AK",AK,-153.70361111,65.99277778
CNY,"Moab, UT",UT,-109.75361111,38.7575
FWL,"Farewell, AK",AK,-153.89055556,62.50916667
BLV,"Belleville, IL",IL,-89.83527778,38.54527778
FBK,"Fairbanks, AK",AK,-147.61638889,64.83666667
MOS,"Moses Point, AK",AK,-162.05722222,64.69805556
ZNC,"Nyac, AK",AK,-159.99361111,60.98055556
UGI,"Uganik, AK",AK,-153.31666667,57.75
HIF,"Ogden, UT",UT,-111.97305556,41.12388889
TYE,"Tyonek, AK",AK,-151.13805556,61.07666667
POB,"Fayetteville, NC",NC,-79.01444444,35.17083333
OQS,"Sandy, AK",AK,-160.22583333,56.23333333
CKB,"Clarksburg/Fairmont, WV",WV,-80.2275,39.29777778
ELV,"Elfin Cove, AK",AK,-136.31666667,58.2
PEC,"Pelican, AK",AK,-136.23333333,57.95
KOY,"Olga Bay, AK",AK,-154.2275,57.16222222
KPY,"Port Bailey, AK",AK,-153.03333333,57.93333333
GRI,"Grand Island, NE",NE,-98.30972222,40.9675
KAE,"Kake, AK",AK,-133.94388889,56.97333333
SHD,"Staunton, VA",VA,-78.89638889,38.26388889
SWO,"Stillwater, OK",OK,-97.08583333,36.16138889
MUO,"Mountain Home, ID",ID,-115.8725,43.04361111
A36,"Deep Bay, AK",AK,-131.65555556,55.56027778
KXA,"Kasaan, AK",AK,-132.39583333,55.53777778
CEC,"Crescent City, CA",CA,-124.23666667,41.78027778
ISN,"Williston, ND",ND,-103.64222222,48.17805556
BED,"Bedford, MA",MA,-71.28888889,42.47
OTH,"North Bend/Coos Bay, OR",OR,-124.24694444,43.41694444
PLB,"Plattsburgh, NY",NY,-73.52111111,44.68833333
HHH,"Hilton Head, SC",SC,-80.6975,32.22444444
JRB,"New York, NY",NY,-74.00916667,40.70111111
FRD,"Friday Harbor, WA",WA,-123.02444444,48.52194444
ESD,"Eastsound, WA",WA,-122.91055556,48.70833333
VGT,"Las Vegas, NV",NV,-115.19444444,36.21083333
ELY,"Ely, NV",NV,-114.84194444,39.29972222
MHK,"Manhattan/Ft. Riley, KS",KS,-96.67194444,39.14111111
OLF,"Wolf Point, MT",MT,-105.575,48.09444444
GGW,"Glasgow, MT",MT,-106.61472222,48.2125
HOB,"Hobbs, NM",NM,-103.21722222,32.6875
CVN,"Clovis, NM",NM,-103.0775,34.42666667
HWI,"Hawk Inlet, AK",AK,-134.75,58.13333333
TNC,"Tin City, AK",AK,-167.9225,65.56416667
ACV,"Arcata/Eureka, CA",CA,-124.10833333,40.97777778
DIK,"Dickinson, ND",ND,-102.80194444,46.79722222
LPW,"Little Port Walter, AK",AK,-134.83333333,56.38333333
MCE,"Merced, CA",CA,-120.51388889,37.28472222
XWA,"Williston, ND",ND,-103.75111111,48.26083333
RUT,"Rutland, VT",VT,-72.94972222,43.52972222
MTH,"Marathon, FL",FL,-81.05138889,24.72611111
EYW,"Key West, FL",FL,-81.76,24.55611111
MKK,"Hoolehua, HI",HI,-157.09638889,21.15277778
VRB,"Vero Beach, FL",FL,-80.41805556,27.65555556
MLS,"Miles City, MT",MT,-105.88611111,46.42805556
GDV,"Glendive, MT",MT,-104.80722222,47.13861111
JHM,"Kapalua, HI",HI,-156.67305556,20.96305556
SGU,"St. George, UT",UT,-113.51027778,37.03638889
LUK,"Cincinnati, OH",OH,-84.41861111,39.10333333
SDY,"Sidney, MT",MT,-104.1925,47.70694444
HII,"Lake Havasu City, AZ",AZ,-114.35833333,34.57111111
NIP,"Jacksonville, FL",FL,-81.67611111,30.23361111
GKN,"Gulkana, AK",AK,-145.45444444,62.155
SMN,"Salmon, ID",ID,-113.88138889,45.12333333
COF,"Cocoa Beach, FL",FL,-80.61,28.235
SYA,"Shemya, AK",AK,174.11361111,52.71222222
EDW,"Edwards, CA",CA,-117.87916667,34.91805556
SCJ,"Smith Cove, AK",AK,-132.35194444,55.45472222
NUW,"Whidbey Island, WA",WA,-122.65583333,48.35194444
DQH,"Alpine, AK",AK,-150.94472222,70.34416667
MVM,"Kayenta, AZ",AZ,-110.22833333,36.71638889
LYH,"Lynchburg, VA",VA,-79.20111111,37.32666667
SBY,"Salisbury, MD",MD,-75.50944444,38.34027778
CNM,"Carlsbad, NM",NM,-104.26333333,32.3375
BKX,"Brookings, SD",SD,-96.81888889,44.30444444
HON,"Huron, SD",SD,-98.22861111,44.38527778
A07,"Selawik, AK",AK,-160.15277778,66.76611111
LGD,"La Grande, OR",OR,-118.00611111,45.28944444
STG,"St. George Island, AK",AK,-169.56416667,56.60083333
ODW,"Oak Harbor, WA",WA,-122.67361111,48.25166667
EWN,"New Bern/Morehead/Beaufort, NC",NC,-77.04305556,35.07277778
IMT,"Iron Mountain/Kingsfd, MI",MI,-88.11444444,45.81833333
VIS,"Visalia, CA",CA,-119.39277778,36.31861111
FVQ,"Donlin Creek Mine, AK",AK,-158.20416667,62.07194444
STS,"Santa Rosa, CA",CA,-122.81277778,38.50972222
NTD,"Port Hueneme, CA",CA,-119.11972222,34.11916667
TCT,"Takotna, AK",AK,-156.02972222,62.99305556
PVY,"Pope Vanoy, AK",AK,-154.91666667,59.31666667
DQR,"Peach Springs, AZ",AZ,-113.81694444,35.98611111
HNM,"Hana, HI",HI,-156.01444444,20.79555556
NCN,"Chenega, AK",AK,-147.99472222,60.07861111
CIC,"Chico, CA",CA,-121.85833333,39.79527778
HMN,"Alamogordo, NM",NM,-106.10916667,32.85194444
DDC,"Dodge City, KS",KS,-99.96555556,37.76305556
PWK,"Chicago, IL",IL,-87.90166667,42.11416667
CDL,"Candle, AK",AK,-161.92638889,65.90777778
ALZ,"Lazy Bay, AK",AK,-154.24583333,56.89583333
FNR,"Funter Bay Alaska, AK",AK,-134.9,58.25
BVU,"Beluga, AK",AK,-151.04277778,61.17277778
CLM,"Port Angeles, WA",WA,-123.49972222,48.12027778
KLN,"Larsen Bay, AK",AK,-153.97666667,57.535
BQV,"Bartlett Cove, AK",AK,-135.88527778,58.45527778
KWP,"West Point, AK",AK,-153.55,57.76694444
DCK,"Dahl Creek, AK",AK,-156.89138889,66.9425
OQL,"Mels, AK",AK,-160.075,56.23333333
EKI,"Elkhart, IN",IN,-86.00333333,41.71944444
GON,"New London/Groton, CT",CT,-72.04527778,41.33
CZN,"Chisana, AK",AK,-142.04944444,62.07166667
BLF,"Princeton/Bluefield, WV",WV,-81.2075,37.29583333
PHF,"Newport News/Williamsburg, VA",VA,-76.49305556,37.13194444
TEH,"Tetlin, AK",AK,-142.51861111,63.12472222
EAR,"Kearney, NE",NE,-99.00666667,40.72694444
SMX,"Santa Maria, CA",CA,-120.45805556,34.9
EXI,"Excursion Inlet, AK",AK,-135.44722222,58.42083333
RDD,"Redding, CA",CA,-122.29333333,40.50888889
AKB,"Atka, AK",AK,-174.20611111,52.22055556
COE,"Coeur d'Alene, ID",ID,-116.81944444,47.77444444
PIB,"Hattiesburg/Laurel, MS",MS,-89.33694444,31.46722222
SDM,"San Diego, CA",CA,-116.98027778,32.57222222
A26,"Ivotuk, AK",AK,-155.73333333,68.48333333
LWT,"Lewistown, MT",MT,-109.46666667,47.04916667
DQF,"Phoenix, AZ",AZ,-111.65555556,33.30777778
FLT,"Flat, AK",AK,-157.98916667,62.45277778
UUK,"Kuparuk, AK",AK,-149.02833333,70.36222222
TIX,"Titusville, FL",FL,-80.79916667,28.51472222
HRO,"Harrison, AR",AR,-93.15472222,36.26138889
VDZ,"Valdez, AK",AK,-146.24472222,61.13416667
OWB,"Owensboro, KY",KY,-87.16694444,37.73888889
OGS,"Ogdensburg, NY",NY,-75.46333333,44.68222222
WRL,"Worland, WY",WY,-107.95055556,43.96277778
FHU,"Fort Huachuca, AZ",AZ,-110.34444444,31.58833333
SLK,"Saranac Lake/Lake Placid, NY",NY,-74.20611111,44.38527778
KVC,"King Cove, AK",AK,-162.26611111,55.11638889
MYK,"May Creek, AK",AK,-142.68583333,61.33611111
ART,"Watertown, NY",NY,-76.01944444,43.99194444
AHN,"Athens, GA",GA,-83.32583333,33.94861111
SBP,"San Luis Obispo, CA",CA,-120.6425,35.23722222
NXX,"Willow Grove, PA",PA,-75.14805556,40.19972222
DVL,"Devils Lake, ND",ND,-98.91,48.11666667
JMS,"Jamestown, ND",ND,-98.67805556,46.92972222
NKX,"San Diego, CA",CA,-117.14305556,32.86861111
A11,"Bell Creek, AK",AK,-159.54027778,60.78388889
CYM,"Chatham, AK",AK,-134.94444444,57.51527778
RIV,"Riverside, CA",CA,-117.25944444,33.88083333
MXY,"McCarthy, AK",AK,-142.9025,61.43777778
WGO,"Winchester, VA",VA,-78.14444444,39.14361111
NLG,"Nelson Lagoon, AK",AK,-161.16027778,56.0075
CVS,"Clovis, NM",NM,-103.3225,34.3825
KLL,"Levelock, AK",AK,-156.86,59.12694444
GMU,"Greenville, SC",SC,-82.35,34.84805556
RQI,"Nixon Fork Mine, AK",AK,-154.73472222,62.23388889
UGB,"Pilot Point, AK",AK,-157.74,57.42527778
A13,"Mountaintop Mine, AK",AK,-157.99555556,61.39027778
MXF,"Montgomery, AL",AL,-86.36583333,32.38305556
VNY,"Van Nuys, CA",CA,-118.49,34.20972222
AOS,"Amook Bay, AK",AK,-153.81305556,57.45472222
FFO,"Dayton, OH",OH,-84.04833333,39.82611111
MSL,"Muscle Shoals, AL",AL,-87.61027778,34.74527778
KPV,"Perryville, AK",AK,-159.16083333,55.90666667
PGA,"Page, AZ",AZ,-111.44833333,36.92611111
PNE,"Philadelphia, PA",PA,-75.01055556,40.08194444
SOP,"Pinehurst/Southern Pines, NC",NC,-79.38916667,35.2375
EGX,"Egegik, AK",AK,-157.37472222,58.18444444
PTD,"Port Alexander, AK",AK,-134.64638889,56.24722222
SAF,"Santa Fe, NM",NM,-106.08944444,35.61722222
OQP,"Pumice, AK",AK,-157.73333333,57.17833333
A01,"Fairbanks/Ft. Wainwright, AK",AK,-147.36388889,64.36361111
CYT,"Cape Yakataga, AK",AK,-142.49555556,60.08083333
NQA,"Millington, TN",TN,-89.87055556,35.35666667
BIF,"El Paso, TX",TX,-106.38,31.84944444
KYK,"Karluk, AK",AK,-154.45388889,57.56611111
OLH,"Old Harbor, AK",AK,-153.26972222,57.21833333
PVU,"Provo, UT",UT,-111.72333333,40.21916667
MCK,"McCook, NE",NE,-100.59194444,40.20638889
FNL,"Fort Collins/Loveland, CO",CO,-105.01138889,40.45194444
FVZ,"Deadhorse, AK",AK,-153.0775,70.00388889
AIA,"Alliance, NE",NE,-102.80361111,42.05333333
CDR,"Chadron, NE",NE,-103.09527778,42.8375
OHC,"Northeast Cape, AK",AK,-168.96888889,63.32638889
DQW,"Peach Springs, AZ",AZ,-113.2925,35.57222222
WDG,"Enid, OK",OK,-97.78944444,36.37583333
PNC,"Ponca City, OK",OK,-97.09972222,36.73194444
UGS,"Ugashik, AK",AK,-157.39611111,57.52333333
NUQ,"Mountain View, CA",CA,-122.04916667,37.41611111
RKD,"Rockland, ME",ME,-69.09972222,44.06027778
AUG,"Augusta/Waterville, ME",ME,-69.79722222,44.32055556
IGG,"Igiugig, AK",AK,-155.90166667,59.32416667
BLD,"Boulder City, NV",NV,-114.86111111,35.94722222
SKW,"Skwentna, AK",AK,-151.19527778,61.96611111
DMA,"Tucson, AZ",AZ,-110.88305556,32.16638889
SVW,"Sparrevohn, AK",AK,-155.57472222,61.09722222
BCE,"Bryce Canyon, UT",UT,-112.14583333,37.70638889
PCA,"Portage Creek, AK",AK,-157.71111111,58.90638889
VEL,"Vernal, UT",UT,-109.51138889,40.43611111
WSN,"South Naknek, AK",AK,-157.0025,58.70194444
JBR,"Jonesboro, AR",AR,-90.64638889,35.83166667
NNK,"Naknek, AK",AK,-157.02527778,58.73472222
HGR,"Hagerstown, MD",MD,-77.72638889,39.70861111
FKL,"Franklin/Oil City, PA",PA,-79.86055556,41.3775
BSZ,"Bartletts, AK",AK,-157.35027778,58.23361111
CFA,"Coffee Point, AK",AK,-157.5,58.21666667
A27,"Pogo Mines, AK",AK,-144.93638889,64.44
BMX,"Big Mountain, AK",AK,-155.25888889,59.36111111
ORI,"Port Lions, AK",AK,-152.8475,57.885
LWM,"Lawrence, MA",MA,-71.12361111,42.71694444
VIK,"Kavik River, AK",AK,-146.89916667,69.67722222
DQK,"Fort Drum, NY",NY,-75.71972222,44.05555556
WCL,"Whalers Cove Lodge, AK",AK,-134.56666667,57.46666667
EIL,"Fairbanks, AK",AK,-147.10138889,64.66555556
TIK,"Oklahoma City, OK",OK,-97.38666667,35.41472222
KIB,"Ivanof Bay, AK",AK,-159.48333333,55.9
IAB,"Wichita, KS",KS,-97.2675,37.62305556
RME,"Rome, NY",NY,-75.40694444,43.23388889
C01,"Camarillo, CA",CA,-119.09444444,34.21361111
BQK,"Brunswick, GA",GA,-81.46638889,31.25916667
MYL,"McCall, ID",ID,-116.10166667,44.88861111
IKO,"Nikolski, AK",AK,-168.84916667,52.94166667
UXR,"Monument Valley, UT",UT,-110.20055556,37.01666667
DJN,"Delta Junction, AK",AK,-145.7225,64.05
LWB,"Lewisburg, WV",WV,-80.39944444,37.85833333
MVW,"Burlington/Mount Vernon, WA",WA,-122.42166667,48.47055556
HLM,"Holland, MI",MI,-86.16194444,42.79583333
VZM,"Jensens Strip, AK",AK,-157.05,57.95
OQM,"Meshik, AK",AK,-158.08527778,56.76666667
FQW,"Fort Glenn, AK",AK,-167.88333333,53.36666667
FAJ,"Fajardo, PR",PR,-65.66166667,18.30888889
DIO,"Diomede Island, AK",AK,-168.95305556,65.75861111
BFD,"Bradford, PA",PA,-78.64,41.80305556
KOZ,"Ouzinkie, AK",AK,-152.465,57.94222222
BKL,"Cleveland, OH",OH,-81.68277778,41.51777778
AKK,"Akhiok, AK",AK,-154.1825,56.93861111
HVR,"Havre, MT",MT,-109.76222222,48.54305556
A74,"Nanwalek, AK",AK,-151.87722222,59.24111111
MUE,"Kamuela, HI",HI,-155.66805556,20.00138889
NGF,"Kaneohe, HI",HI,-157.76805556,21.45055556
SXQ,"Soldotna, AK",AK,-151.03972222,60.47527778
A40,"Cape Simpson, AK",AK,-154.72833333,71.05694444
BHB,"Bar Harbor, ME",ME,-68.36138889,44.44972222
UXP,"Bay St. Louis, MS",MS,-89.45472222,30.36777778
MGE,"Marietta, GA",GA,-84.51416667,33.91444444
VQS,"Vieques, PR",PR,-65.49361111,18.13472222
MMU,"Morristown, NJ",NJ,-74.415,40.79944444
SCF,"Phoenix, AZ",AZ,-111.91055556,33.62277778
JZM,"Hog River, AK",AK,-155.68472222,66.17611111
SSC,"Sumter, SC",SC,-80.47055556,33.97277778
GBH,"Galbraith Lake, AK",AK,-149.49,68.47972222
CLF,"Clear, AK",AK,-149.11777778,64.30166667
VOK,"Camp Douglas, WI",WI,-90.25305556,43.93916667
GMT,"Granite Mountain, AK",AK,-161.28138889,65.40222222
MKC,"Kansas City, MO",MO,-94.59277778,39.12305556
UTM,"Tunica, MS",MS,-90.34777778,34.685
ZXM,"Saltery Cove, AK",AK,-132.32916667,55.40861111
WRB,"Macon, GA",GA,-83.59194444,32.64027778
A80,"Cape Simpson, AK",AK,-155.32138889,70.57388889
SZL,"Knob Noster, MO",MO,-93.54777778,38.73027778
RNT,"Renton, WA",WA,-122.21583333,47.49305556
A03,"Hallo Bay, AK",AK,-154.02333333,58.4575
BKF,"Brooks Lake, AK",AK,-156.23333333,58.6
QQB,"Keyes Point, AK",AK,-154.61666667,60.15
ENV,"Wendover, UT",UT,-114.02861111,40.71861111
LRU,"Las Cruces, NM",NM,-106.92194444,32.28944444
MTN,"Baltimore, MD",MD,-76.41388889,39.32555556
HST,"Homestead, FL",FL,-80.38361111,25.48861111
SWD,"Seward, AK",AK,-149.41694444,60.13
MBL,"Manistee/Ludington, MI",MI,-86.24694444,44.2725
KFP,"False Pass, AK",AK,-163.40722222,54.84777778
A61,"Cape Sarichef, AK",AK,-164.91444444,54.5825
OQY,"Sivinuvik, AK",AK,-161.48333333,66.88333333
ICY,"Icy Bay, AK",AK,-141.66166667,59.96888889
CAD,"Cadillac, MI",MI,-85.41888889,44.27527778
GGG,"Longview, TX",TX,-94.71138889,32.38388889
OXC,"Waterbury, CT",CT,-73.13527778,41.47833333
JQF,"Concord, NC",NC,-80.70972222,35.38527778
TMB,"Miami, FL",FL,-80.43333333,25.6475
TLF,"Telida, AK",AK,-153.28416667,63.37888889
IWD,"Ironwood, MI",MI,-90.13138889,46.5275
A37,"Kako, AK",AK,-161.43972222,61.89888889
GLR,"Gaylord, MI",MI,-84.70333333,45.01305556
MEO,"Manteo, NC",NC,-75.69555556,35.91888889
MCF,"Tampa, FL",FL,-82.52111111,27.84944444
MIB,"Minot, ND",ND,-101.35805556,48.41583333
LFI,"Newport News/Hampton, VA",VA,-76.36055556,37.08277778
CIL,"Council, AK",AK,-163.70361111,64.89666667
FXE,"Fort Lauderdale, FL",FL,-80.17083333,26.19722222
A71,"Homer, AK",AK,-151.03,59.73833333
UXA,"Lik Camp, AK",AK,-163.2,68.16666667
VZY,"Katmai Lodge, AK",AK,-156.04833333,59.07
DQL,"Anchorage, AK",AK,-149.96527778,61.18666667
LKK,"Kulik Lake, AK",AK,-155.09555556,58.965
BAD,"Shreveport, LA",LA,-93.6625,32.50194444
DGB,"Danger Bay, AK",AK,-152.55,58.13333333
ENN,"Nenana, AK",AK,-149.07444444,64.54888889
GSB,"Goldsboro, NC",NC,-77.96055556,35.33944444
VAD,"Valdosta, GA",GA,-83.19305556,30.96861111
RLU,"Bornite/Ruby Creek, AK",AK,-156.92916667,67.10166667
UST,"St. Augustine, FL",FL,-81.33972222,29.95916667
SSB,"Christiansted, VI",VI,-64.70527778,17.74916667
JGC,"Grand Canyon, AZ",AZ,-112.13333333,35.96666667
HAE,"Havasupai, AZ",AZ,-112.66666667,36.21666667
A83,"Petrof Point, AK",AK,-150.765,59.37638889
SMO,"Santa Monica, CA",CA,-118.45138889,34.01583333
SVC,"Silver City/Hurley, NM",NM,-108.15638889,32.63666667
TKA,"Talkeetna, AK",AK,-150.09277778,62.32138889
BAF,"Westfield, MA",MA,-72.71583333,42.15805556
SPB,"Charlotte Amalie, VI",VI,-64.94083333,18.33861111
HLG,"Wheeling, WV",WV,-80.64638889,40.175
A52,"Silver Salmon Creek, AK",AK,-152.68222222,59.96388889
A12,"Cinnabar, AK",AK,-158.86444444,60.78527778
ELD,"El Dorado, AR",AR,-92.81166667,33.22111111
TSG,"Tanacross, AK",AK,-143.32888889,63.37416667
UXM,"47-Mile Mine, AK",AK,-158.14527778,61.04444444
CSM,"Clinton, OK",OK,-99.20055556,35.33972222
NQX,"Key West, FL",FL,-81.68666667,24.57472222
LUF,"Phoenix, AZ",AZ,-112.38305556,33.535
OQC,"Cinder River Lodge, AK",AK,-157.81416667,57.06666667
RCA,"Rapid City, SD",SD,-103.10361111,44.145
CFT,"Clifton, AZ",AZ,-109.21111111,32.95694444
APC,"Napa, CA",CA,-122.28055556,38.21305556
TVL,"Lake Tahoe, CA",CA,-119.99527778,38.89388889
MNZ,"Manassas, VA",VA,-77.515,38.72111111
RQZ,"Mary Esther, FL",FL,-86.68916667,30.42777778
VA3,"Marion/Wytheville, VA",VA,-81.35,36.89472222
ECG,"Elizabeth City, NC",NC,-76.17444444,36.26055556
SOW,"Show Low, AZ",AZ,-110.00555556,34.26555556
XSD,"Tonopah, NV",NV,-116.78083333,37.79888889
AGC,"Pittsburgh, PA",PA,-79.92916667,40.35444444
LIV,"Livengood, AK",AK,-148.54111111,65.53111111
BCT,"Boca Raton, FL",FL,-80.10833333,26.37083333
BFT,"Beaufort, SC",SC,-80.63444444,32.41222222
ROG,"Rogers, AR",AR,-94.10694444,36.3725
BLM,"Belmar/Farmingdale, NJ",NJ,-74.12444444,40.18666667
KQA,"Akutan, AK",AK,-165.78333333,54.13333333
CTH,"Coatesville, PA",PA,-75.86555556,39.97888889
SGR,"Sugar Land, TX",TX,-95.65666667,29.62222222
A20,"Alpine, AK",AK,-150.94472222,70.34416667
FTY,"Atlanta, GA",GA,-84.52138889,33.77916667
NEW,"New Orleans, LA",LA,-90.02833333,30.0425
LUP,"Kalaupapa, HI",HI,-156.97361111,21.21111111
CGF,"Cleveland, OH",OH,-81.48722222,41.56444444
FOK,"Westhampton, NY",NY,-72.63166667,40.84361111
HFD,"Hartford, CT",CT,-72.64944444,41.73666667
PVC,"Provincetown, MA",MA,-70.22083333,42.07222222
OTS,"Anacortes, WA",WA,-122.6625,48.49861111
LKE,"Seattle, WA",WA,-122.33861111,47.62888889
SKJ,"Sitkinak, AK",AK,-154.11388889,56.53277778
HTO,"East Hampton, NY",NY,-72.25166667,40.95944444
PCT,"Princeton, NJ",NJ,-74.65888889,40.39916667
NJK,"El Centro, CA",CA,-115.67166667,32.82916667
FMY,"Fort Myers, FL",FL,-81.86333333,26.58666667
EEN,"Keene, NH",NH,-72.27083333,42.89833333
ORL,"Orlando, FL",FL,-81.33305556,28.54555556
RBD,"Dallas/Fort Worth, TX",TX,-96.86888889,32.68138889
TBN,"Fort Leonard Wood, MO",MO,-92.14083333,37.74166667
XWC,"Yantarni Bay, AK",AK,-156.56666667,56.88333333
NPA,"Pensacola, FL",FL,-87.31805556,30.35333333
SSI,"Brunswick, GA",GA,-81.39111111,31.15194444
MTC,"Mt. Clemens, MI",MI,-82.83694444,42.61388889
TX2,"Denver City, TX",TX,-102.845,32.97472222
LRF,"Jacksonville, AR",AR,-92.145,34.9175
WQJ,"Peard Bay, AK",AK,-158.33333333,70.8
BIX,"Biloxi, MS",MS,-88.92444444,30.41055556
RED,"Reedsville, PA",PA,-77.62694444,40.6775
IRK,"Kirksville, MO",MO,-92.545,40.09333333
PCE,"Painter Creek, AK",AK,-157.39694444,57.15388889
LJN,"Lake Jackson, TX",TX,-95.45694444,29.03833333
BVD,"Beaver Inlet, AK",AK,-166.3025,53.8325
A57,"International Seafoods, AK",AK,-157.53333333,58.26666667
FMH,"Falmouth, MA",MA,-70.52277778,41.65916667
STJ,"St. Joseph, MO",MO,-94.90972222,39.77194444
ORT,"Northway, AK",AK,-141.92805556,62.96111111
OQI,"Vrems, AK",AK,-157.08666667,57.85694444
ZXU,"North Kingstown, RI",RI,-71.41222222,41.59722222
VZE,"Frazer Lake, AK",AK,-154.08611111,57.20833333
WQZ,"Chignik Lake, AK",AK,-158.77777778,56.25555556
MSC,"Mesa, AZ",AZ,-111.72833333,33.46083333
UXI,"Calder Bay, AK",AK,-133.49305556,56.17166667
A63,"Yukon Charley Rivvers, AK",AK,-143.13416667,65.31166667
ISQ,"Manistique, MI",MI,-86.17166667,45.97444444
OSU,"Columbus, OH",OH,-83.07333333,40.07944444
SFZ,"Smithfield, RI",RI,-71.49138889,41.92083333
DXR,"Danbury, CT",CT,-73.48222222,41.37166667
EWB,"New Bedford/Fall River, MA",MA,-70.95777778,41.67666667
DLF,"Del Rio, TX",TX,-100.77805556,29.35944444
AIK,"Aiken, SC",SC,-81.685,33.64944444
RBH,"Brooks Lodge, AK",AK,-155.8,58.55
ANN,"Annette, AK",AK,-131.57083333,55.04222222
WYS,"West Yellowstone, MT",MT,-111.11777778,44.68833333
KCN,"Chernofski, AK",AK,-167.55,53.4
VZO,"Stepovak, AK",AK,-159.86666667,55.83333333
WQW,"David River, AK",AK,-161.6375,55.91444444
A48,"Port Hobron, AK",AK,-153.15,57.15
A79,"Cape Simpson, AK",AK,-154.03388889,71.50166667
VZF,"Afognak Straits, AK",AK,-152.81666667,58.0
A89,"Montague Island, AK",AK,-147.51666667,59.925
OTM,"Ottumwa, IA",IA,-92.44694444,41.10722222
HAR,"Harrisburg, PA",PA,-76.85138889,40.21722222
GED,"Georgetown, DE",DE,-75.35944444,38.68777778
GUY,"Guymon, OK",OK,-101.50694444,36.68416667
WWA,"Wasilla, AK",AK,-149.53944444,61.57194444
ALM,"Alamogordo, NM",NM,-105.99111111,32.83944444
IDP,"Independence, KS",KS,-95.77888889,37.15805556
QQE,"Sealing Point, AK",AK,-163.75,67.11666667
JZI,"Portland, TN",TN,-86.47694444,36.59277778
WST,"Westerly, RI",RI,-71.80333333,41.34972222
BAB,"Marysville, CA",CA,-121.43666667,39.13611111
WQR,"Naknek, AK",AK,-157.00722222,58.73416667
GRF,"Tacoma, WA",WA,-122.58083333,47.07916667
VWK,"Saratoga Springs, NY",NY,-73.86166667,43.05083333
CIV,"Chomley, AK",AK,-132.32361111,55.24777778
LOU,"Louisville, KY",KY,-85.66361111,38.22805556
UMB,"Umnak, AK",AK,-167.8875,53.37666667
A78,"Cape Simpson, AK",AK,-154.44361111,71.03
GFL,"Glens Falls, NY",NY,-73.61027778,43.34111111
PYM,"Plymouth, MA",MA,-70.72777778,41.90861111
JZU,"Bennington, VT",VT,-73.24611111,42.89111111
OWD,"Norwood, MA",MA,-71.17305556,42.19055556
FID,"Fishers Island, NY",NY,-72.03166667,41.25222222
ISS,"Wiscasset, ME",ME,-69.7125,43.96138889
NPT,"Newport, RI",RI,-71.28166667,41.5325
BID,"Block Island, RI",RI,-71.57777778,41.16805556
MPV,"Montpelier/Barre, VT",VT,-72.56222222,44.20361111
ASH,"Nashua, NH",NH,-71.51416667,42.7825
QQC,"Nimiuk Point, AK",AK,-162.01666667,66.78333333
NY2,"Fulton, NY",NY,-76.38805556,43.35083333
CGE,"Cambridge, MD",MD,-76.03027778,38.53944444
BGQ,"Big Lake, AK",AK,-149.8125,61.53472222
A28,"Ayakulik River, AK",AK,-154.42222222,57.25388889
VA4,"Leesburg, VA",VA,-77.5575,39.07805556
KUW,"Kugururok River, AK",AK,-161.4,68.30694444
KSR,"Sandy River, AK",AK,-160.38638889,56.24444444
GLS,"Galveston, TX",TX,-94.86055556,29.26527778
NY3,"Oneonta, NY",NY,-75.01638889,42.45
CXC,"Chitina, AK",AK,-144.42972222,61.58333333
PTR,"Pleasant Harbour, AK",AK,-153.25,57.83333333
A69,"Cold Bay, AK",AK,-162.12527778,55.74
RDR,"Red River, ND",ND,-97.40111111,47.96111111
PHD,"New Philadelphia, OH",OH,-81.42,40.47027778
OH6,"Ravenna, OH",OH,-81.25166667,41.21027778
VZW,"Cape Greig, AK",AK,-157.71666667,57.71666667
CUB,"Columbia, SC",SC,-80.99527778,33.97055556
NLC,"Lemoore, CA",CA,-119.95222222,36.33305556
FL4,"Bunnell, FL",FL,-81.20777778,29.46527778
MCB,"McComb, MS",MS,-90.47194444,31.17833333
PTL,"Port Armstrong, AK",AK,-134.66138889,56.29611111
WAR,"Warsaw, IN",IN,-85.84,41.27472222
LTS,"Altus, OK",OK,-99.26805556,34.66638889
RND,"San Antonio, TX",TX,-98.27805556,29.52888889
